{
  "locations": [
    {
      "locationName": "Thames Riverside Feed Point",
      "lat": 51.507,
      "lng": -0.087,
      "index": 120,
      "descriptionName": "Cats gather near benches by the river",
      "locationMediaUrl": null,
      "feeders": [1, 2],
      "ownerid": 1
    },
    {
      "locationName": "Camden Alley Feeding Spot",
      "lat": 51.542,
      "lng": -0.142,
      "index": -85,
      "descriptionName": "Quiet alley behind market stalls",
      "locationMediaUrl": null,
      "feeders": [2, 3, 1],
      "ownerid": 2
    },
    {
      "locationName": "Hyde Park Corner Station Area",
      "lat": 51.503,
      "lng": -0.152,
      "index": 310,
      "descriptionName": "Near park entrance benches",
      "locationMediaUrl": null,
      "feeders": [3],
      "ownerid": 3
    },
    {
      "locationName": "Shoreditch Street Feed Zone",
      "lat": 51.524,
      "lng": -0.078,
      "index": -220,
      "descriptionName": "Behind street art wall",
      "locationMediaUrl": null,
      "feeders": [3, 4],
      "ownerid": 4
    },
    {
      "locationName": "Greenwich Park Feeding Hill",
      "lat": 51.476,
      "lng": -0.001,
      "index": 450,
      "descriptionName": "Hilltop feeding with city view",
      "locationMediaUrl": null,
      "feeders": [1, 4, 2],
      "ownerid": 1
    },
    {
      "locationName": "Soho Backstreet Cats Corner",
      "lat": 51.513,
      "lng": -0.131,
      "index": -40,
      "descriptionName": "Small corner between restaurants",
      "locationMediaUrl": null,
      "feeders": [2],
      "ownerid": 2
    },
    {
      "locationName": "Battersea Park Feeding Bench",
      "lat": 51.479,
      "lng": -0.163,
      "index": 275,
      "descriptionName": "Near lake-side benches",
      "locationMediaUrl": null,
      "feeders": [3, 1],
      "ownerid": 3
    },
    {
      "locationName": "King’s Cross Quiet Wall Spot",
      "lat": 51.531,
      "lng": -0.123,
      "index": -310,
      "descriptionName": "Behind station service wall",
      "locationMediaUrl": null,
      "feeders": [4, 2, 1],
      "ownerid": 4
    },
    {
      "locationName": "Notting Hill Garden Edge",
      "lat": 51.509,
      "lng": -0.205,
      "index": 95,
      "descriptionName": "Residential garden side feeding area",
      "locationMediaUrl": null,
      "feeders": [1],
      "ownerid": 1
    },
    {
      "locationName": "Regent’s Canal Feeding Path",
      "lat": 51.537,
      "lng": -0.093,
      "index": -480,
      "descriptionName": "Along canal walking path",
      "locationMediaUrl": null,
      "feeders": [2, 3, 4, 1],
      "ownerid": 2
    }
  ]
}